[
  {
    "code": "ATL",
    "name": "Hartsfield-Jackson Atlanta International Airport",
    "city": "Atlanta",
    "state": "GA",
    "country": "USA",
    "timezone": "America/New_York",
    "lat": 33.6407,
    "lon": -84.4277,
    "type": "large_airport"
  },
  {
    "code": "LAX",
    "name": "Los Angeles International Airport",
    "city": "Los Angeles",
    "state": "CA",
    "country": "USA",
    "timezone": "America/Los_Angeles",
    "lat": 33.9425,
    "lon": -118.4081,
    "type": "large_airport"
  },
  {
    "code": "ORD",
    "name": "Chicago O'Hare International Airport",
    "city": "Chicago",
    "state": "IL",
    "country": "USA",
    "timezone": "America/Chicago",
    "lat": 41.9786,
    "lon": -87.9048,
    "type": "large_airport"
  },
  {
    "code": "DFW",
    "name": "Dallas/Fort Worth International Airport",
    "city": "Dallas",
    "state": "TX",
    "country": "USA",
    "timezone": "America/Chicago",
    "lat": 32.8962,
    "lon": -97.0372,
    "type": "large_airport"
  },
  {
    "code": "DEN",
    "name": "Denver International Airport",
    "city": "Denver",
    "state": "CO",
    "country": "USA",
    "timezone": "America/Denver",
    "lat": 39.8617,
    "lon": -104.6731,
    "type": "large_airport"
  },
  {
    "code": "JFK",
    "name": "John F. Kennedy International Airport",
    "city": "New York",
    "state": "NY",
    "country": "USA",
    "timezone": "America/New_York",
    "lat": 40.6413,
    "lon": -73.7781,
    "type": "large_airport"
  },
  {
    "code": "LGA",
    "name": "LaGuardia Airport",
    "city": "New York",
    "state": "NY",
    "country": "USA",
    "timezone": "America/New_York",
    "lat": 40.7769,
    "lon": -73.8740,
    "type": "large_airport"
  },
  {
    "code": "EWR",
    "name": "Newark Liberty International Airport",
    "city": "Newark",
    "state": "NJ",
    "country": "USA",
    "timezone": "America/New_York",
    "lat": 40.6895,
    "lon": -74.1745,
    "type": "large_airport"
  },
  {
    "code": "SFO",
    "name": "San Francisco International Airport",
    "city": "San Francisco",
    "state": "CA",
    "country": "USA",
    "timezone": "America/Los_Angeles",
    "lat": 37.6213,
    "lon": -122.3790,
    "type": "large_airport"
  },
  {
    "code": "SJC",
    "name": "Norman Y. Mineta San Jos√© International Airport",
    "city": "San Jose",
    "state": "CA",
    "country": "USA",
    "timezone": "America/Los_Angeles",
    "lat": 37.3626,
    "lon": -121.9290,
    "type": "large_airport"
  },
  {
    "code": "OAK",
    "name": "Oakland International Airport",
    "city": "Oakland",
    "state": "CA",
    "country": "USA",
    "timezone": "America/Los_Angeles",
    "lat": 37.7214,
    "lon": -122.2208,
    "type": "medium_airport"
  },
  {
    "code": "SEA",
    "name": "Seattle-Tacoma International Airport",
    "city": "Seattle",
    "state": "WA",
    "country": "USA",
    "timezone": "America/Los_Angeles",
    "lat": 47.4502,
    "lon": -122.3088,
    "type": "large_airport"
  },
  {
    "code": "LAS",
    "name": "Harry Reid International Airport",
    "city": "Las Vegas",
    "state": "NV",
    "country": "USA",
    "timezone": "America/Los_Angeles",
    "lat": 36.0840,
    "lon": -115.1537,
    "type": "large_airport"
  },
  {
    "code": "MCO",
    "name": "Orlando International Airport",
    "city": "Orlando",
    "state": "FL",
    "country": "USA",
    "timezone": "America/New_York",
    "lat": 28.4312,
    "lon": -81.3081,
    "type": "large_airport"
  },
  {
    "code": "MIA",
    "name": "Miami International Airport",
    "city": "Miami",
    "state": "FL",
    "country": "USA",
    "timezone": "America/New_York",
    "lat": 25.7959,
    "lon": -80.2870,
    "type": "large_airport"
  },
  {
    "code": "FLL",
    "name": "Fort Lauderdale-Hollywood International Airport",
    "city": "Fort Lauderdale",
    "state": "FL",
    "country": "USA",
    "timezone": "America/New_York",
    "lat": 26.0742,
    "lon": -80.1506,
    "type": "large_airport"
  },
  {
    "code": "BOS",
    "name": "Logan International Airport",
    "city": "Boston",
    "state": "MA",
    "country": "USA",
    "timezone": "America/New_York",
    "lat": 42.3656,
    "lon": -71.0096,
    "type": "large_airport"
  },
  {
    "code": "MSP",
    "name": "Minneapolis-Saint Paul International Airport",
    "city": "Minneapolis",
    "state": "MN",
    "country": "USA",
    "timezone": "America/Chicago",
    "lat": 44.8848,
    "lon": -93.2223,
    "type": "large_airport"
  },
  {
    "code": "DTW",
    "name": "Detroit Metropolitan Wayne County Airport",
    "city": "Detroit",
    "state": "MI",
    "country": "USA",
    "timezone": "America/New_York",
    "lat": 42.2162,
    "lon": -83.3554,
    "type": "large_airport"
  },
  {
    "code": "PHX",
    "name": "Phoenix Sky Harbor International Airport",
    "city": "Phoenix",
    "state": "AZ",
    "country": "USA",
    "timezone": "America/Phoenix",
    "lat": 33.4352,
    "lon": -112.0101,
    "type": "large_airport"
  },
  {
    "code": "IAH",
    "name": "George Bush Intercontinental Airport",
    "city": "Houston",
    "state": "TX",
    "country": "USA",
    "timezone": "America/Chicago",
    "lat": 29.9902,
    "lon": -95.3368,
    "type": "large_airport"
  },
  {
    "code": "HOU",
    "name": "William P. Hobby Airport",
    "city": "Houston",
    "state": "TX",
    "country": "USA",
    "timezone": "America/Chicago",
    "lat": 29.6454,
    "lon": -95.2789,
    "type": "medium_airport"
  },
  {
    "code": "PHL",
    "name": "Philadelphia International Airport",
    "city": "Philadelphia",
    "state": "PA",
    "country": "USA",
    "timezone": "America/New_York",
    "lat": 39.8744,
    "lon": -75.2424,
    "type": "large_airport"
  },
  {
    "code": "CLT",
    "name": "Charlotte Douglas International Airport",
    "city": "Charlotte",
    "state": "NC",
    "country": "USA",
    "timezone": "America/New_York",
    "lat": 35.2144,
    "lon": -80.9431,
    "type": "large_airport"
  },
  {
    "code": "BWI",
    "name": "Baltimore/Washington International Thurgood Marshall Airport",
    "city": "Baltimore",
    "state": "MD",
    "country": "USA",
    "timezone": "America/New_York",
    "lat": 39.1774,
    "lon": -76.6684,
    "type": "large_airport"
  },
  {
    "code": "DCA",
    "name": "Ronald Reagan Washington National Airport",
    "city": "Washington",
    "state": "DC",
    "country": "USA",
    "timezone": "America/New_York",
    "lat": 38.8512,
    "lon": -77.0402,
    "type": "large_airport"
  },
  {
    "code": "IAD",
    "name": "Washington Dulles International Airport",
    "city": "Washington",
    "state": "VA",
    "country": "USA",
    "timezone": "America/New_York",
    "lat": 38.9445,
    "lon": -77.4558,
    "type": "large_airport"
  },
  {
    "code": "TPA",
    "name": "Tampa International Airport",
    "city": "Tampa",
    "state": "FL",
    "country": "USA",
    "timezone": "America/New_York",
    "lat": 27.9759,
    "lon": -82.5330,
    "type": "large_airport"
  },
  {
    "code": "PDX",
    "name": "Portland International Airport",
    "city": "Portland",
    "state": "OR",
    "country": "USA",
    "timezone": "America/Los_Angeles",
    "lat": 45.5898,
    "lon": -122.5951,
    "type": "large_airport"
  },
  {
    "code": "SLC",
    "name": "Salt Lake City International Airport",
    "city": "Salt Lake City",
    "state": "UT",
    "country": "USA",
    "timezone": "America/Denver",
    "lat": 40.7899,
    "lon": -111.9791,
    "type": "large_airport"
  },
  {
    "code": "STL",
    "name": "Lambert-St. Louis International Airport",
    "city": "St. Louis",
    "state": "MO",
    "country": "USA",
    "timezone": "America/Chicago",
    "lat": 38.7487,
    "lon": -90.3700,
    "type": "large_airport"
  },
  {
    "code": "SAN",
    "name": "San Diego International Airport",
    "city": "San Diego",
    "state": "CA",
    "country": "USA",
    "timezone": "America/Los_Angeles",
    "lat": 32.7338,
    "lon": -117.1933,
    "type": "large_airport"
  },
  {
    "code": "MDW",
    "name": "Chicago Midway International Airport",
    "city": "Chicago",
    "state": "IL",
    "country": "USA",
    "timezone": "America/Chicago",
    "lat": 41.7868,
    "lon": -87.7524,
    "type": "large_airport"
  },
  {
    "code": "HNL",
    "name": "Daniel K. Inouye International Airport",
    "city": "Honolulu",
    "state": "HI",
    "country": "USA",
    "timezone": "Pacific/Honolulu",
    "lat": 21.3187,
    "lon": -157.9224,
    "type": "large_airport"
  },
  {
    "code": "ANC",
    "name": "Ted Stevens Anchorage International Airport",
    "city": "Anchorage",
    "state": "AK",
    "country": "USA",
    "timezone": "America/Anchorage",
    "lat": 61.2181,
    "lon": -149.9003,
    "type": "large_airport"
  },
  {
    "code": "CLE",
    "name": "Cleveland Hopkins International Airport",
    "city": "Cleveland",
    "state": "OH",
    "country": "USA",
    "timezone": "America/New_York",
    "lat": 41.4117,
    "lon": -81.8498,
    "type": "large_airport"
  },
  {
    "code": "CMH",
    "name": "John Glenn Columbus International Airport",
    "city": "Columbus",
    "state": "OH",
    "country": "USA",
    "timezone": "America/New_York",
    "lat": 39.9980,
    "lon": -82.8919,
    "type": "large_airport"
  },
  {
    "code": "CVG",
    "name": "Cincinnati/Northern Kentucky International Airport",
    "city": "Cincinnati",
    "state": "KY",
    "country": "USA",
    "timezone": "America/New_York",
    "lat": 39.0488,
    "lon": -84.6678,
    "type": "large_airport"
  },
  {
    "code": "IND",
    "name": "Indianapolis International Airport",
    "city": "Indianapolis",
    "state": "IN",
    "country": "USA",
    "timezone": "America/New_York",
    "lat": 39.7173,
    "lon": -86.2944,
    "type": "large_airport"
  },
  {
    "code": "MKE",
    "name": "Milwaukee Mitchell International Airport",
    "city": "Milwaukee",
    "state": "WI",
    "country": "USA",
    "timezone": "America/Chicago",
    "lat": 42.9472,
    "lon": -87.8966,
    "type": "large_airport"
  },
  {
    "code": "RDU",
    "name": "Raleigh-Durham International Airport",
    "city": "Raleigh",
    "state": "NC",
    "country": "USA",
    "timezone": "America/New_York",
    "lat": 35.8801,
    "lon": -78.7874,
    "type": "large_airport"
  },
  {
    "code": "JAX",
    "name": "Jacksonville International Airport",
    "city": "Jacksonville",
    "state": "FL",
    "country": "USA",
    "timezone": "America/New_York",
    "lat": 30.4939,
    "lon": -81.6878,
    "type": "medium_airport"
  },
  {
    "code": "MEM",
    "name": "Memphis International Airport",
    "city": "Memphis",
    "state": "TN",
    "country": "USA",
    "timezone": "America/Chicago",
    "lat": 35.0424,
    "lon": -89.9767,
    "type": "large_airport"
  },
  {
    "code": "BNA",
    "name": "Nashville International Airport",
    "city": "Nashville",
    "state": "TN",
    "country": "USA",
    "timezone": "America/Chicago",
    "lat": 36.1245,
    "lon": -86.6782,
    "type": "large_airport"
  },
  {
    "code": "AUS",
    "name": "Austin-Bergstrom International Airport",
    "city": "Austin",
    "state": "TX",
    "country": "USA",
    "timezone": "America/Chicago",
    "lat": 30.1975,
    "lon": -97.6664,
    "type": "large_airport"
  },
  {
    "code": "SAT",
    "name": "San Antonio International Airport",
    "city": "San Antonio",
    "state": "TX",
    "country": "USA",
    "timezone": "America/Chicago",
    "lat": 29.5337,
    "lon": -98.4698,
    "type": "large_airport"
  },
  {
    "code": "MSY",
    "name": "Louis Armstrong New Orleans International Airport",
    "city": "New Orleans",
    "state": "LA",
    "country": "USA",
    "timezone": "America/Chicago",
    "lat": 29.9934,
    "lon": -90.2581,
    "type": "large_airport"
  },
  {
    "code": "OKC",
    "name": "Will Rogers World Airport",
    "city": "Oklahoma City",
    "state": "OK",
    "country": "USA",
    "timezone": "America/Chicago",
    "lat": 35.3931,
    "lon": -97.6007,
    "type": "medium_airport"
  },
  {
    "code": "TUL",
    "name": "Tulsa International Airport",
    "city": "Tulsa",
    "state": "OK",
    "country": "USA",
    "timezone": "America/Chicago",
    "lat": 36.1984,
    "lon": -95.8881,
    "type": "medium_airport"
  },
  {
    "code": "LIT",
    "name": "Bill and Hillary Clinton National Airport",
    "city": "Little Rock",
    "state": "AR",
    "country": "USA",
    "timezone": "America/Chicago",
    "lat": 34.7294,
    "lon": -92.2243,
    "type": "medium_airport"
  },
  {
    "code": "JAC",
    "name": "Jackson Hole Airport",
    "city": "Jackson",
    "state": "WY",
    "country": "USA",
    "timezone": "America/Denver",
    "lat": 43.6073,
    "lon": -110.7377,
    "type": "small_airport"
  },
  {
    "code": "BOI",
    "name": "Boise Airport",
    "city": "Boise",
    "state": "ID",
    "country": "USA",
    "timezone": "America/Boise",
    "lat": 43.5644,
    "lon": -116.2228,
    "type": "medium_airport"
  },
  {
    "code": "BIL",
    "name": "Billings Logan International Airport",
    "city": "Billings",
    "state": "MT",
    "country": "USA",
    "timezone": "America/Denver",
    "lat": 45.8077,
    "lon": -108.5428,
    "type": "medium_airport"
  },
  {
    "code": "GEG",
    "name": "Spokane International Airport",
    "city": "Spokane",
    "state": "WA",
    "country": "USA",
    "timezone": "America/Los_Angeles",
    "lat": 47.6198,
    "lon": -117.5336,
    "type": "medium_airport"
  },    
  {
    "code": "FAR",
    "name": "Hector International Airport",
    "city": "Fargo",
    "state": "ND",
    "country": "USA",
    "timezone": "America/Chicago",
    "lat": 46.9207,
    "lon": -96.8158,
    "type": "medium_airport"
  },
  {
    "code": "BIS",
    "name": "Bismarck Municipal Airport",
    "city": "Bismarck",
    "state": "ND",
    "country": "USA",
    "timezone": "America/Chicago",
    "lat": 46.7727,
    "lon": -100.7459,
    "type": "small_airport"
  },
  {
    "code": "RAP",
    "name": "Rapid City Regional Airport",
    "city": "Rapid City",
    "state": "SD",
    "country": "USA",
    "timezone": "America/Denver",
    "lat": 44.0453,
    "lon": -103.0574,
    "type": "medium_airport"
  },
  {
    "code": "FSD",
    "name": "Joe Foss Field",
    "city": "Sioux Falls",
    "state": "SD",
    "country": "USA",
    "timezone": "America/Chicago",
    "lat": 43.5820,
    "lon": -96.7417,
    "type": "medium_airport"
  },
  {
    "code": "DSM",
    "name": "Des Moines International Airport",
    "city": "Des Moines",
    "state": "IA",
    "country": "USA",
    "timezone": "America/Chicago",
    "lat": 41.5340,
    "lon": -93.6631,
    "type": "medium_airport"
  },
  {
    "code": "OMA",
    "name": "Eppley Airfield",
    "city": "Omaha",
    "state": "NE",
    "country": "USA",
    "timezone": "America/Chicago",
    "lat": 41.3032,
    "lon": -95.8941,
    "type": "medium_airport"
  },
  {
    "code": "ICT",
    "name": "Wichita Dwight D. Eisenhower National Airport",
    "city": "Wichita",
    "state": "KS",
    "country": "USA",
    "timezone": "America/Chicago",
    "lat": 37.6499,
    "lon": -97.4331,
    "type": "medium_airport"
  },
  {
    "code": "MCI",
    "name": "Kansas City International Airport",
    "city": "Kansas City",
    "state": "MO",
    "country": "USA",
    "timezone": "America/Chicago",
    "lat": 39.2976,
    "lon": -94.7139,
    "type": "large_airport"
  },
  {
    "code": "PVD",
    "name": "Rhode Island T. F. Green International Airport",
    "city": "Providence",
    "state": "RI",
    "country": "USA",
    "timezone": "America/New_York",
    "lat": 41.7227,
    "lon": -71.4281,
    "type": "medium_airport"
  },
  {
    "code": "BDL",
    "name": "Bradley International Airport",
    "city": "Hartford",
    "state": "CT",
    "country": "USA",
    "timezone": "America/New_York",
    "lat": 41.9390,
    "lon": -72.6832,
    "type": "medium_airport"
  },
  {
    "code": "BGR",
    "name": "Bangor International Airport",
    "city": "Bangor",
    "state": "ME",
    "country": "USA",
    "timezone": "America/New_York",
    "lat": 44.8074,
    "lon": -68.8281,
    "type": "medium_airport"
  },
  {
    "code": "PWM",
    "name": "Portland International Jetport",
    "city": "Portland",
    "state": "ME",
    "country": "USA",
    "timezone": "America/New_York",
    "lat": 43.6462,
    "lon": -70.3093,
    "type": "medium_airport"
  },
  {
    "code": "BTV",
    "name": "Burlington International Airport",
    "city": "Burlington",
    "state": "VT",
    "country": "USA",
    "timezone": "America/New_York",
    "lat": 44.4719,
    "lon": -73.1533,
    "type": "medium_airport"
  },
  {
    "code": "ALB",
    "name": "Albany International Airport",
    "city": "Albany",
    "state": "NY",
    "country": "USA",
    "timezone": "America/New_York",
    "lat": 42.7483,
    "lon": -73.8017,
    "type": "medium_airport"
  },
  {
    "code": "BUF",
    "name": "Buffalo Niagara International Airport",
    "city": "Buffalo",
    "state": "NY",
    "country": "USA",
    "timezone": "America/New_York",
    "lat": 42.9405,
    "lon": -78.7322,
    "type": "medium_airport"
  },
  {
    "code": "ROC",
    "name": "Greater Rochester International Airport",
    "city": "Rochester",
    "state": "NY",
    "country": "USA",
    "timezone": "America/New_York",
    "lat": 43.1189,
    "lon": -77.6724,
    "type": "medium_airport"
  },
  {
    "code": "SYR",
    "name": "Syracuse Hancock International Airport",
    "city": "Syracuse",
    "state": "NY",
    "country": "USA",
    "timezone": "America/New_York",
    "lat": 43.1112,
    "lon": -76.1063,
    "type": "medium_airport"
  },
  {
    "code": "AVP",
    "name": "Wilkes-Barre/Scranton International Airport",
    "city": "Scranton",
    "state": "PA",
    "country": "USA",
    "timezone": "America/New_York",
    "lat": 41.3387,
    "lon": -75.7243,
    "type": "small_airport"
  },
  {
    "code": "ERI",
    "name": "Erie International Airport",
    "city": "Erie",
    "state": "PA",
    "country": "USA",
    "timezone": "America/New_York",
    "lat": 42.0831,
    "lon": -80.1739,
    "type": "small_airport"
  },
  {
    "code": "ABE",
    "name": "Lehigh Valley International Airport",
    "city": "Allentown",
    "state": "PA",
    "country": "USA",
    "timezone": "America/New_York",
    "lat": 40.6521,
    "lon": -75.4408,
    "type": "medium_airport"
  },
  {
    "code": "CAK",
    "name": "Akron-Canton Airport",
    "city": "Akron",
    "state": "OH",
    "country": "USA",
    "timezone": "America/New_York",
    "lat": 40.9161,
    "lon": -81.4422,
    "type": "medium_airport"
  },
  {
    "code": "DAY",
    "name": "James M. Cox Dayton International Airport",
    "city": "Dayton",
    "state": "OH",
    "country": "USA",
    "timezone": "America/New_York",
    "lat": 39.9024,
    "lon": -84.2194,
    "type": "medium_airport"
  },
  {
    "code": "TOL",
    "name": "Toledo Express Airport",
    "city": "Toledo",
    "state": "OH",
    "country": "USA",
    "timezone": "America/New_York",
    "lat": 41.5868,
    "lon": -83.8078,
    "type": "small_airport"
  },
  {
    "code": "LEX",
    "name": "Blue Grass Airport",
    "city": "Lexington",
    "state": "KY",
    "country": "USA",
    "timezone": "America/New_York",
    "lat": 38.0365,
    "lon": -84.6056,
    "type": "medium_airport"
  },
  {
    "code": "SDF",
    "name": "Louisville Muhammad Ali International Airport",
    "city": "Louisville",
    "state": "KY",
    "country": "USA",
    "timezone": "America/New_York",
    "lat": 38.1740,
    "lon": -85.7364,
    "type": "large_airport"
  },
  {
    "code": "EVV",
    "name": "Evansville Regional Airport",
    "city": "Evansville",
    "state": "IN",
    "country": "USA",
    "timezone": "America/Chicago",
    "lat": 38.0370,
    "lon": -87.5324,
    "type": "small_airport"
  },
  {
    "code": "FWA",
    "name": "Fort Wayne International Airport",
    "city": "Fort Wayne",
    "state": "IN",
    "country": "USA",
    "timezone": "America/New_York",
    "lat": 40.9785,
    "lon": -85.1951,
    "type": "medium_airport"
  },
  {
    "code": "SBN",
    "name": "South Bend International Airport",
    "city": "South Bend",
    "state": "IN",
    "country": "USA",
    "timezone": "America/New_York",
    "lat": 41.7093,
    "lon": -86.3172,
    "type": "medium_airport"
  },
  {
    "code": "GRR",
    "name": "Gerald R. Ford International Airport",
    "city": "Grand Rapids",
    "state": "MI",
    "country": "USA",
    "timezone": "America/New_York",
    "lat": 42.8809,
    "lon": -85.5228,
    "type": "medium_airport"
  },
  {
    "code": "FNT",
    "name": "Bishop International Airport",
    "city": "Flint",
    "state": "MI",
    "country": "USA",
    "timezone": "America/New_York",
    "lat": 42.9655,
    "lon": -83.7436,
    "type": "medium_airport"
  },
  {
    "code": "LAN",
    "name": "Capital Region International Airport",
    "city": "Lansing",
    "state": "MI",
    "country": "USA",
    "timezone": "America/New_York",
    "lat": 42.7787,
    "lon": -84.5874,
    "type": "small_airport"
  },
  {
    "code": "MQT",
    "name": "Sawyer International Airport",
    "city": "Marquette",
    "state": "MI",
    "country": "USA",
    "timezone": "America/New_York",
    "lat": 46.3536,
    "lon": -87.3954,
    "type": "small_airport"
  },
  {
    "code": "ATW",
    "name": "Appleton International Airport",
    "city": "Appleton",
    "state": "WI",
    "country": "USA",
    "timezone": "America/Chicago",
    "lat": 44.2581,
    "lon": -88.5191,
    "type": "small_airport"
  },
  {
    "code": "GRB",
    "name": "Austin Straubel International Airport",
    "city": "Green Bay",
    "state": "WI",
    "country": "USA",
    "timezone": "America/Chicago",
    "lat": 44.4851,
    "lon": -88.1296,
    "type": "small_airport"
  },
  {
    "code": "MSN",
    "name": "Dane County Regional Airport",
    "city": "Madison",
    "state": "WI",
    "country": "USA",
    "timezone": "America/Chicago",
    "lat": 43.1399,
    "lon": -89.3375,
    "type": "medium_airport"
  },
  {
    "code": "LSE",
    "name": "La Crosse Regional Airport",
    "city": "La Crosse",
    "state": "WI",
    "country": "USA",
    "timezone": "America/Chicago",
    "lat": 43.8799,
    "lon": -91.2567,
    "type": "small_airport"
  },
  {
    "code": "DLH",
    "name": "Duluth International Airport",
    "city": "Duluth",
    "state": "MN",
    "country": "USA",
    "timezone": "America/Chicago",
    "lat": 46.8421,
    "lon": -92.1936,
    "type": "medium_airport"
  },
  {
    "code": "RST",
    "name": "Rochester International Airport",
    "city": "Rochester",
    "state": "MN",
    "country": "USA",
    "timezone": "America/Chicago",
    "lat": 43.9083,
    "lon": -92.4924,
    "type": "small_airport"
  },
  {
    "code": "HIB",
    "name": "Range Regional Airport",
    "city": "Hibbing",
    "state": "MN",
    "country": "USA",
    "timezone": "America/Chicago",
    "lat": 47.3866,
    "lon": -92.8390,
    "type": "small_airport"
  },
  {
    "code": "BJI",
    "name": "Bemidji Regional Airport",
    "city": "Bemidji",
    "state": "MN",
    "country": "USA",
    "timezone": "America/Chicago",
    "lat": 47.5043,
    "lon": -94.9333,
    "type": "small_airport"
  }
]